[
  {"ID": "FD-PB01", "Regiao": "Brasil - PB", "Nome": "Lajedo de Pai Mateus (Cabaceiras)", "Categoria": "Natural", "Meses_Ideais": "06,07,08,09", "Esforco": "Médio", "Janela": "Fim de Semana", "Custo": "Low", "Hub": "Van JP", "Lat": -7.4208, "Lng": -36.3044, "Familias": ""},
  {"ID": "FD-PB02", "Regiao": "Brasil - PB", "Nome": "Santuário de Cruz da Menina (Patos)", "Categoria": "Religioso", "Meses_Ideais": "05,06,07", "Esforco": "Baixo", "Janela": "Fim de Semana", "Custo": "Low", "Hub": "Van JP", "Lat": -7.0244, "Lng": -37.2811, "Familias": ""},
  {"ID": "FD-PB03", "Regiao": "Brasil - PB", "Nome": "Engenhos Seculares (Areia)", "Categoria": "Histórico", "Meses_Ideais": "05,06,07,08", "Esforco": "Médio", "Janela": "Fim de Semana", "Custo": "Low", "Hub": "Van JP", "Lat": -6.9631, "Lng": -35.6961, "Familias": ""},
  {"ID": "FD-RN01", "Regiao": "Brasil - RN", "Nome": "Castelo de Bivar (Carnaúba dos Dantas)", "Categoria": "Histórico", "Meses_Ideais": "05,06,07", "Esforco": "Baixo", "Janela": "Fim de Semana", "Custo": "Low", "Hub": "Van JP", "Lat": -6.5511, "Lng": -36.6322, "Familias": ""},
  {"ID": "FD-RN02", "Regiao": "Brasil - RN", "Nome": "Santuário de Santa Rita de Cássia (Santa Cruz)", "Categoria": "Religioso", "Meses_Ideais": "Ano Todo", "Esforco": "Médio", "Janela": "Fim de Semana", "Custo": "Low", "Hub": "Van JP", "Lat": -6.2239, "Lng": -36.0214, "Familias": ""},
  {"ID": "FD-PE01", "Regiao": "Brasil - PE", "Nome": "Teatro de Nova Jerusalém", "Categoria": "Religioso", "Meses_Ideais": "03,04", "Esforco": "Médio", "Janela": "Fim de Semana", "Custo": "Med", "Hub": "Van JP", "Lat": -8.2017, "Lng": -36.3725, "Familias": ""},
  {"ID": "BR-001", "Regiao": "Brasil - SP", "Nome": "Santuário de Aparecida", "Categoria": "Religioso", "Meses_Ideais": "04,05,06,07,08", "Esforco": "Baixo", "Janela": "Expedição Longa", "Custo": "Med", "Hub": "Voo SP", "Lat": -22.8469, "Lng": -45.2287, "Familias": ""},
  {"ID": "BR-002", "Regiao": "Brasil - SC", "Nome": "Beto Carrero World e Penha", "Categoria": "Moderno", "Meses_Ideais": "03,04,05,09", "Esforco": "Alto", "Janela": "Expedição Longa", "Custo": "High", "Hub": "Voo Sul", "Lat": -26.7994, "Lng": -48.6472, "Familias": ""},
  {"ID": "BR-003", "Regiao": "Brasil - MG", "Nome": "Ouro Preto (Barroco Histórico)", "Categoria": "Histórico", "Meses_Ideais": "05,06,07", "Esforco": "Alto", "Janela": "Expedição Longa", "Custo": "Med", "Hub": "Voo BH", "Lat": -20.3856, "Lng": -43.5035, "Familias": ""},
  {"ID": "AS-001", "Regiao": "Peru", "Nome": "Santuário de Machu Picchu", "Categoria": "Histórico", "Meses_Ideais": "05,06,07,08", "Esforco": "Alto", "Janela": "Expedição Longa", "Custo": "High", "Hub": "Voo Lima", "Lat": -13.1631, "Lng": -72.5450, "Familias": ""},
  {"ID": "AS-002", "Regiao": "Argentina", "Nome": "Glaciar Perito Moreno (Patagônia)", "Categoria": "Natural", "Meses_Ideais": "11,12,01,02", "Esforco": "Médio", "Janela": "Expedição Longa", "Custo": "High", "Hub": "Voo BA", "Lat": -50.3401, "Lng": -72.2618, "Familias": ""},
  {"ID": "WD-001", "Regiao": "Vaticano", "Nome": "Basílica de São Pedro e Capela Sistina", "Categoria": "Religioso", "Meses_Ideais": "04,05,09,10", "Esforco": "Alto", "Janela": "Expedição Longa", "Custo": "High", "Hub": "Voo Roma", "Lat": 41.9029, "Lng": 12.4534, "Familias": ""},
  {"ID": "WD-002", "Regiao": "Israel", "Nome": "Santo Sepulcro e Via Dolorosa", "Categoria": "Religioso", "Meses_Ideais": "04,05,10,11", "Esforco": "Alto", "Janela": "Expedição Longa", "Custo": "High", "Hub": "Voo Tel Aviv", "Lat": 31.7683, "Lng": 35.2137, "Familias": ""},
  {"ID": "WD-003", "Regiao": "Egito", "Nome": "Pirâmides de Gizé", "Categoria": "Histórico", "Meses_Ideais": "11,12,01,02", "Esforco": "Médio", "Janela": "Expedição Longa", "Custo": "High", "Hub": "Voo Cairo", "Lat": 29.9792, "Lng": 31.1342, "Familias": ""}
]